name,city,brand,operator,longitude,latitude
Odeon Lee Valley,London,Odeon,Odeon,-0.0372559,51.6331646
Cineworld Enfield,London,Cineworld,Cineworld,-0.0609636,51.6502249
The Cube,Bristol,,,-2.5933154,51.4611435
Cineworld,Bedford,Cineworld,,-0.4454412,52.1332469
Odeon,Dunfermline,Odeon,,-3.3950524,56.0781499
Genesis Cinema,London,,,-0.0512389,51.5213413
Odeon,Hull,Odeon,,-0.3447607,53.7371437
Cineworld,Eastbourne,Cineworld,,0.2832333,50.7693265
Arts Picturehouse,Cambridge,Picturehouse Cinemas,City Screen Limited,0.1234954,52.2028779
Cineworld,Feltham,Cineworld,,-0.4046333,51.4438575
Showcase Cinemas,Bargeddie,Showcase Cinemas,,-4.0619675,55.8474738
Streatham Odeon,London,Odeon,,-0.1283671,51.4322015
Showcase Cinema Nantgarw,Cardiff,Showcase Cinemas,,-3.2745505,51.5655311
The Light Cinema,Cambridge,,,0.1371418,52.1905042
Showcase Cinemas,Batley,Showcase Cinemas,,-1.6405272,53.7436532
Barbican Centre (Cinema),,,,-0.0937556,51.5197763
Cineworld Crawley,Crawley,Cineworld,,-0.1893021,51.120958
Odeon Mezzanine,,Odeon,,-0.1290844,51.5102139
Cineworld Leicester Square,London,Cineworld,,-0.1304091,51.5109335
Vue Leicester Square,London,Vue,,-0.1293677,51.5112449
Odeon Luxe Haymarket,London,Odeon,,-0.1312249,51.5095663
Curzon Soho,London,Curzon,,-0.1306078,51.5126577
Cineworld Ashford,Ashford,Cineworld,Cineworld,0.873378,51.1606449
Odeon Glasgow Quay,Glasgow,Odeon,,-4.2765689,55.8545708
Odeon,Tunbridge Wells,Odeon,,0.2969939,51.1543111
Odeon Luxe,Warrington,Odeon,,-2.6331567,53.4070352
Odeon Multiplex Cinema,,Odeon,,-0.8103905,51.815421
Showcase Cinemas,Bristol,Showcase Cinemas,,-2.5610533,51.4496099
Savoy,Nottingham,,,-1.1736153,52.9511785
Hebden Bridge Picture House,Hebden Bridge,,,-2.0126028,53.7405316
Odeon Holloway,London,Odeon,Odeon,-0.1213954,51.5586621
New Park Centre Cinema.,,,,-0.7733122,50.837668
Cineworld Chichester,Chichester,Cineworld,,-0.7854904,50.8303841
Vue Purley Way,Croydon,Vue,,-0.1246385,51.3780368
Odeon Luxe Edinburgh West,,Odeon,,-3.2863974,55.9152128
Screen on the Green,London,Everyman Cinemas,Everyman Media Group PLC,-0.1036648,51.5368532
Vue,,Vue,,-2.6803412,53.7483861
Odeon,,Odeon,Odeon,-0.2623241,51.333927
Cameo Picturehouse,Edinburgh,Picturehouse Cinemas,,-3.2039269,55.9427844
Odeon,Edinburgh,Odeon,,-3.2057617,55.9456211
Filmhouse,Edinburgh,,,-3.2061597,55.9464558
Cineworld,Edinburgh,Cineworld,,-3.2182349,55.9412502
Odeon,,Odeon,Cineworld,-1.22788,54.576396
Odeon Luxe,Derby,Odeon,,-1.4635179,52.9389893
Vue,Exeter,Vue,,-3.5225029,50.7258055
Odeon Multiplex,,Odeon,,-0.7227654,51.520685
Reel Cinema,,REEL Cinemas,,-2.2473062,53.7843022
Cineworld,Dundee,Cineworld,,-3.0235928,56.4816538
Showcase Cinemas,Nottingham,Showcase Cinemas,,-1.1760546,52.9366957
The Tivoli,,,,-3.4864827,50.9021806
Hollywood Green,London,Vue,Vue,-0.1086503,51.5968801
Vue,,Vue,,-1.1053644,53.5128871
Odeon Wimbledon,London,Odeon,,-0.2048792,51.4198096
Cineworld,Hull,Cineworld,,-0.3534681,53.7913701
The Rex,Wilmslow,,,-2.232616,53.3254709
Vue,Bristol,Vue,,-2.4991909,51.4496795
Odeon,Portsmouth,Odeon,,-1.0966036,50.8405499
Showcase Cinemas,Peterborough,Showcase Cinemas,Showcase,-0.2232213,52.574123
Depot,Lewes,,,0.0120094,50.8715417
The Odyssey Cinema,St Albans,,,-0.3325215,51.7479521
Odeon,Norwich,Odeon,,1.3049405,52.6251551
Odeon,Leicester,Odeon,,-1.135834,52.6201545
The Light,Sittingbourne,,,0.7405865,51.3395548
Harbour Lights Picturehouse,Southampton,Picturehouse Cinemas,,-1.3931695,50.8946396
Vue,Ellesmere Port,Vue,,-2.8893259,53.2650241
Cineworld Rochester,,Cineworld,,0.4747508,51.3795076
Odeon Preston,Preston,Odeon,Odeon,-2.7284816,53.7594262
Cineworld,Bolton,Cineworld,,-2.4224746,53.5977029
Showcase Cinemas,,Showcase Cinemas,,-0.8979564,51.4378064
Odeon Guildford,Guildford,Odeon,,-0.5790187,51.2380919
Glasgow Film Theatre,Glasgow,,,-4.2612721,55.8657221
Sunset Cinema,,,,-0.5154732,51.404179
Capitol Cinema,,Merlin Cinemas,Merlin Cinemas,-4.7191778,50.470563
Cineworld,Braintree,Cineworld,,0.5723162,51.8674292
Vue York,York,Vue,Vue,-1.1019647,53.9904588
Regal Cinema Evesham,Evesham,,,-1.9399419,52.0909648
Moray Playhouse,,,,-3.3183418,57.6488851
Vue,Inverness,Vue,,-4.1800394,57.4811994
Vue Dagenham,Dagenham,Vue,,0.1349168,51.5326613
Vue Cinema,Darlington,Vue,,-1.5532592,54.522728
Barnet Everyman Cinema,Barnet,,,-0.1878968,51.6463493
Strand Cinema,Belfast,,,-5.8797426,54.6006341
Regal Cinema,Melton Mowbray,,,-0.8859138,52.765406
Cineworld,Falkirk,Cineworld,,-3.7770876,56.0029165
4D Chocolate Adventure Cinema,,,,-1.9308825,52.4296626
Curzon Mayfair,London,Curzon,,-0.1479958,51.5064636
Reel Cinema,Bridgnorth,REEL Cinemas,,-2.4222158,52.535652
Peckhamplex,London,,,-0.0679074,51.4708481
Leiston Film Theatre,Leiston,,,1.5774148,52.2055507
Broadway Cinema,Nottingham,,,-1.1436646,52.954298
Cineworld,Brighton,Cineworld,,-0.1059658,50.8126894
Odeon,Southend-on-Sea,Odeon,,0.711187,51.5404868
Cineworld,Belfast,Cineworld,,-5.9166939,54.6040355
Cineworld Ashton,,Cineworld,,-2.1099279,53.489398
Odeon,Chelmsford,Odeon,,0.4754424,51.7310437
Odeon Cinema,Richmond upon Thames,Odeon,Odeon,-0.3051862,51.4585145
Odeon South Woodford,London,Odeon,,0.0229997,51.5944972
The Dome,,,,-0.368186,50.8102175
Odeon,Northampton,Odeon,Odeon,-0.9366343,52.2368158
Odeon,Chatham,Odeon,Odeon,0.5315527,51.4009933
East Dulwich Picturehouse,London,Picturehouse Cinemas,,-0.0763148,51.4564721
Vue,Reading,Vue,,-0.9691342,51.4533398
Reel Cinema,Morecambe,REEL Cinemas,,-2.8742915,54.0707824
Cineworld,Wakefield,Cineworld,,-1.505879,53.6770631
The Garden Cinema,London,,,-0.1213592,51.5162299
Odeon,Birmingham,Odeon,,-1.8969126,52.478414
Riverside Studios,,,,-0.2278258,51.4887921
Showcase Cinemas,Coventry,Showcase Cinemas,,-1.4300963,52.4353711
Odeon,Wallsend,Odeon,,-1.49494,55.0128733
Vue,Leeds,Vue,,-1.5818327,53.804436
Savoy,Boston,,,-0.0261103,52.9758798
Vue,,Vue,,-2.226787,53.0095129
Odeon Harrogate,Harrogate,Odeon,,-1.5355926,53.9924396
Odeon Luxe,Sheffield,Odeon,,-1.4653325,53.3806973
Adult World Cinema,Birmingham,,,-1.8979464,52.4766706
The Electric Cinema,Birmingham,,,-1.8986761,52.4765208
Showroom Cinema,,,,-1.4654913,53.3772328
Odeon,Dundee,Odeon,,-2.9236882,56.4800979
IMAX,Glasgow,,,-4.2938249,55.8580408
Odeon,,Odeon,,-1.4818619,51.2037786
Duke of York's Cinema,Brighton,Picturehouse Cinemas,,-0.1383855,50.8339072
Vue Cinema,Norwich,Vue,,1.2961571,52.6266868
Brynamman Public Hall Cinema,,,,-3.8690788,51.8104883
Palace Cinema,Broadstairs,,,1.4440487,51.3593438
The Kinema in the Woods,Woodhall Spa,,,-0.2140105,53.1558234
Phoenix Picturehouse,Oxford,Picturehouse Cinemas,Picturehouse Cinemas Ltd,-1.2667729,51.7602374
Playhouse Cinema,Louth,,,-0.0049555,53.3674775
IMC Enniskillen,,,,-7.6334403,54.352269
Odeon,Taunton,Odeon,,-3.0683269,51.0245092
The Arc Cinema,Nottingham,The Arc,,-1.2008567,53.0369645
The Little Theatre,,Picturehouse Cinemas,,-2.3618282,51.3810332
Commodore Cinema,,,,-4.0835658,52.4172019
Vue Meridian,Leicester,Vue,Vue,-1.1855819,52.6137623
BFI IMAX,London,,British Film Institute,-0.1136286,51.504821
Odeon Swiss Cottage,London,Odeon,,-0.1745752,51.5425352
The Ultimate Picture Palace,Oxford,,The Ultimate Picture Palace,-1.2392396,51.7487867
Cineworld,Llandudno Junction,Cineworld,,-3.8084369,53.2822694
Omniplex Cinema,,,Omniplex,-2.0082559,52.3988306
Tywyn Cinema,Tywyn,,,-4.0847531,52.5881313
Dominion Cinema,Edinburgh,,,-3.2087392,55.9306533
Curzon Community Cinema,Clevedon,Curzon,,-2.8551177,51.4357684
Abbeydale Picture House,,,,-1.4798719,53.3593188
Odeon,Tamworth,Odeon,,-1.6904513,52.632047
Showcase Cinemas,Stockton-on-Tees,Showcase Cinemas,,-1.2723524,54.5605573
Broadway Cinema,Letchworth Garden City,,,-0.2285637,51.9772891
Vue,Sheffield,Vue,,-1.4135253,53.4146181
Vue,Grays,Vue,,0.2807353,51.4879165
Cineworld,Ipswich,Cineworld,,1.1494537,52.0535385
Electric Palace,Harwich,,,1.2888629,51.9465252
Hackney Picturehouse,London,Picturehouse Cinemas,Picturehouse,-0.0549394,51.5448145
The Picture House,,,,-1.9090871,53.8697229
IMC Ballymena,,,,-6.267569,54.8615602
Omniplex Bangor,Bangor,,Omniplex Cinema Group,-5.6635725,54.6549318
Cineworld,Chesterfield,Cineworld,,-1.4224895,53.2283697
BFI Southbank,London,,British Film Institute,-0.1152119,51.5067295
Cineworld,Bury St Edmunds,Cineworld,,0.7061737,52.2453725
Cineworld,Aberdeen,Cineworld,,-2.0791221,57.150108
Reel,,,,-2.723302,53.3624648
Ritz,Thirsk,,,-1.343929,54.2311372
Cineworld Bentley Bridge,Wolverhampton,Cineworld,,-2.0930622,52.5963055
Everyman Cinema,Stratford-upon-Avon,Everyman Cinemas,,-1.7086108,52.1920639
Cineworld,,Cineworld,,-1.4859944,51.7879548
Vue,Barrow-In-Furness,Vue,,-3.2396667,54.115011
Everyman,Winchester,Everyman Cinemas,,-1.3186204,51.0607071
Vue,Thornton-Cleveleys,Vue,,-3.0466486,53.8818428
Greenwich Picturehouse,London,Picturehouse Cinemas,,-0.0096892,51.479446
The Rio,,,,0.8152738,51.6271526
Palace Cinema,Devizes,,,-1.9967305,51.353475
Cineworld,Harlow,Cineworld,,0.1093751,51.7847826
Vue Cinema Swindon,,Vue,,-1.7567934,51.5716836
Cineworld,Cheltenham,Cineworld,,-2.0758506,51.903127
Odeon Luxe Acton,London,Odeon,,-0.2813633,51.5257594
Regal Movieplex,cromer,,,1.3004932,52.9307691
Majestic Cinema,King's Lynn,,,0.397295,52.7529161
Odeon,Cardiff,Odeon,,-3.1642245,51.4666573
Reel Cinema,,REEL Cinemas,Reel,-2.1207798,51.4618772
Vue,Hartlepool,Vue,,-1.2074003,54.6872913
Cinema City,Norwich,Picturehouse Cinemas,Picturehouse,1.2961821,52.6302494
Roxy Cinema,,,,-3.0935162,54.1947576
Union Films,Southampton,,,-1.3974386,50.9341145
The Savoy Cinema,Stockport,,,-2.1881329,53.4184909
20th Century Flicks Video Shop,Bristol,,,-2.5967294,51.4561455
Vue Cinema,Leamington Spa,Vue,Vue,-1.538603,52.2888028
White River Cinema,,,,-4.7948318,50.3376527
Odeon Luxe Leicester Square,London,Odeon,,-0.12911,51.5105005
Prince Charles Cinema,London,,,-0.1301247,51.5114935
Cineworld Boldon,Boldon Colliery,Cineworld,,-1.4652773,54.9473154
Electric Palace Picture House,,,,-2.0288799,52.6874842
Odeon,,Odeon,,-1.4787863,52.4956727
Odeon,,Odeon,,-1.1186088,51.2655295
Cineworld,Basildon,Cineworld,,0.4625814,51.5854899
Vue Cinema Cramlington,Cramlington,,Vue Entertainment,-1.5874782,55.0841396
Cineworld,Aldershot,Cineworld,,-0.7684625,51.2499685
Movie House,,,,-5.9268622,54.6085307
Cineworld,Newcastle upon Tyne,Cineworld,,-1.6181898,54.9724386
,,,,-6.1950276,54.7215793
4D Theatre,,,,-3.520499,50.4829221
Everyman,,Everyman Cinemas,,-0.1789879,51.5563508
Exeter Picture House,Exeter,Picturehouse Cinemas,,-3.5362724,50.7207583
Cottage Road Cinema,Leeds,,,-1.5817271,53.8269682
Reel Cinemas,,,,-2.0141104,52.4625982
Odeon,,Odeon,,-2.4434264,53.095946
Parkway Cinema,Cleethorpes,,,-0.0150038,53.5467038
Vue,Edinburgh,Vue,,-3.1859008,55.9562622
Cineworld,,Cineworld,,-1.4137903,53.4026222
Perth Playhouse,Perth,,,-3.433606,56.3980159
Everyman,London,Everyman Cinemas,,-0.1817063,51.5280256
Metro Cinema,,,,-0.3324561,51.5865654
Vue Cinema,,Vue,,-0.338995,51.5815021
Picturedrome Cinema,Bognor Regis,,,-0.6771881,50.7862513
Odeon IMAX,London,Odeon,,0.0127847,51.4906
Palace Cinema,Great Yarmouth,,,1.7277826,52.5797328
Lion Cove 3D Cinema,,,,-0.5996183,51.9986585
Odeon,,Odeon,,-2.1928966,53.0250882
DITG Theatre,"Chicksands, Shefford",,,-0.3586789,52.0418751
Dundonald Omniplex,Belfast,,Omniplex Cinema Group,-5.8236228,54.5888221
Rio Cinema,London,,,-0.0755756,51.5496481
Cineworld,Yeovil,Cineworld,,-2.6253931,50.9403924
The Ritz,,,,-7.6306863,54.3451025
Regal,Stowmarket,,Stowmarket Town Council,0.998721,52.1850882
Northern Light Cinema,Matlock,,,-1.5715483,53.0833253
Vue,,Vue,,-1.3229568,51.3992803
Scott Cinemas,Sidmouth,Scott Cinemas,,-3.2389259,50.6827721
Vue,,Vue,,-3.0234672,53.3930356
Savoy,,,,-1.1236423,53.3013411
Cineworld,Manchester,Cineworld,,-2.2188389,53.4096757
Movie House Cinemas,Glengormley,,,-5.9570269,54.6689259
Alexandra Cinema,Newton Abbot,Scott Cinemas,Scott Cinemas,-3.6118999,50.530855
Vue Cinema Oxford,Oxford,Vue,Vue,-1.2109568,51.7175719
Kino,Rye,,,0.7333604,50.950357
Vue,Cardiff,Vue,,-3.1815277,51.4769808
Cineworld,Cardiff,Cineworld,,-3.173075,51.4789084
The Ritzy,London,Picturehouse Cinemas,,-0.1149611,51.46115
Vue Torbay,Paignton,Vue,,-3.5598347,50.4353536
Clapham Picturehouse,London,Picturehouse Cinemas,,-0.1381521,51.4625014
The Picture House,,,,-1.8292726,54.311622
Gulbenkian Cinema,,,,1.0692569,51.2984513
Ritz Multiplex,,,,-6.746196,54.6465569
Odeon,Bromborough,Odeon,,-2.9743394,53.341086
Silver Screen Cinema,,,,1.1809453,51.0800484
Craigavon Omniplex,Craigavon,Omniplex,,-6.39767,54.4492481
Woodside Drive-In,,,,-3.0116349,53.3939077
The Picture House,Campbeltown,,,-5.6033423,55.4239168
,,,,-7.3301799,54.6112314
Cineworld,,Cineworld,,-1.8315846,51.5607515
Cineworld,Birmingham,Cineworld,Cineworld,-1.9156503,52.4741686
Odeon,,Odeon,,-3.5745778,51.532371
Vue,Staines-upon-Thames,Vue,,-0.5136433,51.4342658
Everyman,,Everyman Cinemas,,-1.7949207,51.0706443
The Venue,Lincoln,,,-0.5357209,53.2440996
Omniplex Cinema Sutton,,,,-0.1953102,51.3647655
Neuadd Buddug,,,,-3.6007932,52.9088444
Vue,Worcester,Vue,,-2.2181429,52.1889107
Odeon,Worcester,Odeon,,-2.2225262,52.1952435
Scala,Ilkeston,REEL Cinemas,Reel Cinemas,-1.3099395,52.9713256
The Orpheus Cinema,Bristol,,Scott Cinemas,-2.6123689,51.4805125
The Oxford Cinema & Café,Oxford,,,-1.2597308,51.754667
Cineworld,Burton-on-Trent,Cineworld,,-1.6318744,52.8049735
Penistone Paramount Cinema,Sheffield,,,-1.6281173,53.5254366
Electric Picture House,Wotton-under-Edge,,,-2.3538257,51.6368509
Everyman,Bristol,Everyman Cinemas,,-2.6096179,51.4629934
Scala,Prestatyn,,,-3.4046326,53.3354501
Alhambra Cinema,Keswick,,,-3.1353351,54.5995997
Everyman Cinema Oxted,,,Everyman,-0.0062209,51.2573854
Loewen Cinema,,,,0.2562881,53.3497365
Regal Cinema,Redruth,,,-5.2295994,50.2330317
The Flavel,,,,-3.5792122,50.3519969
Cineworld,Huntingdon,Cineworld,,-0.1796324,52.350958
Regal Cinema,Henley-on-Thames,Picturehouse Cinemas,,-0.9050418,51.5391685
Limelight Cinema,,,,-2.0767305,52.5232546
Carlton Cinema,Westgate-on-Sea,,,1.3363947,51.3820686
Queens Film Theatre,Belfast,,,-5.9339518,54.5854753
Curzon Bloomsbury,London,Curzon,,-0.123147,51.5240631
Odeon,,Odeon,,-1.7946237,51.068101
Curzon Cinema,Colchester,,Corinthian Curzon (Colchester) Ltd,0.9045051,51.8891002
Scott Cinemas Exmouth,Exmouth,Scott Cinemas,Scott Cinemas,-3.4135836,50.6198464
Showcase Cinema de Lux,Leicester,Showcase Cinemas,,-1.1386573,52.6366155
Lighthouse Cinema,,,,-5.0873384,50.4136279
Wyeside,Builth Wells,,,-3.4002782,52.1501331
Vue,,Vue,,-4.0313221,55.7771884
The Empire Cinema,Sandwich,,,1.3381838,51.275481
Phoenix Cinema,,,,-0.1637085,51.5885079
David Lean Cinema,Croydon,,,-0.0990117,51.3721316
Vue,Croydon,Vue,,-0.1009089,51.372906
Odeon Cinema,Beckenham,Odeon,,-0.0316159,51.4070192
Cineworld,Bradford,Cineworld,,-1.7477802,53.7914277
Showcase Cinemas,Liverpool,Showcase Cinemas,,-2.9135544,53.4567756
Palace Cinema,Haverfordwest,,Independent,-4.9708298,51.7999181
Star And Shadow Cinema,Newcastle upon Tyne,,,-1.5951861,54.979414
Vue,Castleford,Vue,,-1.3416759,53.7102179
Vue Islington,,Vue,,-0.1058269,51.5343822
The Palace,,,,-2.6000477,53.8294916
ODEON Manchester Great Northern,Manchester,Odeon,,-2.2496636,53.476409
Vue,Bristol,Vue,,-2.6046599,51.5233236
Odeon Luxe Birmingham Broadway Plaza,Birmingham,Odeon,Odeon,-1.921653,52.4735521
Odeon,Mansfield,Odeon,,-1.2009707,53.1349987
Odeon,,Odeon,,-2.9650229,53.4869987
Regent,,,,-2.061823,53.3947163
Vue,Stirling,Vue,,-3.9305998,56.1181157
Parkway,Barnsley,,,-1.4792644,53.5539543
Hyde Park Picture House,Leeds,,,-1.5694223,53.812068
The Hippodrome,Bo'Ness,,Falkirk Community Trust,-3.6082142,56.0175395
Odeon,Kilmarnock,Odeon,,-4.4912757,55.6023278
,,,,-4.1410946,55.0752734
Tyneside Cinema,Newcastle upon Tyne,,,-1.6122541,54.9739031
Route 66,Manchester,,Route 66 Drive In Cinemas,-2.316303,53.4711324
Cineworld,,Cineworld,,0.1503111,51.4561474
New Carlton Cinema,Okehampton,,,-4.0035811,50.7393488
Odeon,Gateshead,Odeon,,-1.670193,54.9588263
Everyman,,Everyman Cinemas,,-0.5530925,51.5889868
Cineworld,Luton,Cineworld,,-0.4178798,51.8819746
The Rex Cinema,Elland,,,-1.8381027,53.6851771
Palace Cinema,Felixstowe,,,1.3511137,51.9641304
Cineworld,Didcot,Cineworld,,-1.2404342,51.6074383
,London,Picturehouse Cinemas,,-0.1973473,51.5086882
Electric Cinema,London,,,-0.2050653,51.5155295
Pavilion Cinema,Galashiels,Merlin Cinemas,Merlin Cinemas,-2.8055269,55.6155376
Odeon,,Odeon,,-0.8083843,53.0742859
Eastleigh Vue,Eastleigh,Vue,Vue,-1.3517447,50.9665434
Astoria,Ayr,Merlin Cinemas,,-4.6282459,55.4576171
Cineworld,Milton Keynes,Cineworld,,-0.7487835,52.0411239
The Birks Cinema,Aberfeldy,,,-3.8647384,56.6199147
Plaza Cinema,Skipton,,,-2.0173452,53.9585838
Vue,Plymouth,Vue,,-4.1248563,50.3670529
Cineworld,Shrewsbury,Cineworld,,-2.7393773,52.7030817
Vue,Broadstairs,Vue,,1.3898406,51.3577936
Gala,Durham,,,-1.5750618,54.7783842
Red Carpet Cinema,Burton-on-Trent,,,-1.709933,52.7590888
Savoy Catterick Garrison,Catterick Garrison,,,-1.7249107,54.376026
Plaza Weston,Weston-Super-Mare,Merlin Cinemas,,-2.9758091,51.3466643
Rich Mix Cinema,London,,,-0.0730953,51.5243518
Lisburn Omniplex,,,Omniplex Cinema Group,-6.0516643,54.5075269
Orion Cinema,Dereham,,,0.9403149,52.6811856
Aldeburgh Cinema,Aldeburgh,,,1.6016204,52.1541636
Cineworld,Stevenage,Cineworld,CineWorld,-0.2096594,51.9001962
Cineworld Whiteley,,Cineworld,Cineworld,-1.2479774,50.8860545
Omniplex,Sunderland,,,-1.3804595,54.9081342
Kino Cinema,,,,0.511033,51.0472552
CineWorld Haverhill,,Cineworld,,0.4433722,52.0817665
Central Cinema,Fakenham,Hollywood Cinemas,,0.8468956,52.8302419
The Plaza,,,,-3.7792351,51.5916529
Cineworld,Birmingham,Cineworld,,-1.7172309,52.4478895
,,,,-7.3818626,54.7189978
Everyman Cinema,London,,,-0.1462083,51.5895948
Electric Palace,Bridport,,,-2.75758,50.7320655
,TENBURY WELLS,,,-2.594564,52.3124124
Luxe Cinema,,,,0.1590642,52.66328
Greenock Waterfront Cinema,,,,-4.7565259,55.951408
Newcastle Community Cinema,Newcastle,,,-5.8886151,54.2127419
Cineworld,St. Neots,Cineworld,,-0.2639559,52.2288707
,,,,0.1921534,51.2701359
Cineworld,London,Cineworld,Cineworld,-0.1934097,51.4541535
Odeon,Brighton,Odeon,,-0.145397,50.8212693
The Rex,,,,-2.1113393,50.6856616
The Picture House Uckfield,Uckfield,,,0.0965461,50.9724349
Curzon Cinema,Knutsford,Curzon,,-2.3726948,53.3020232
Pickaquoy Leisure Centre & Cinema,,,,-2.9736729,58.9824687
Odeon,London,Odeon,,-0.1325849,51.5183594
The Cart House,,,,-3.0480085,54.2764651
Alhambra,Penrith,,,-2.7540051,54.6656355
Odeon Richmond Studio (Screens 4-7),Richmond,Odeon,Odeon,-0.3054528,51.4593806
Wellesley Cinema,Wellington,Merlin Cinemas,,-3.2310923,50.9759377
The Windmill,,,,-0.5406798,50.8031055
The Grosvenor Cinema,Glasgow,,,-4.2931757,55.8746661
The Regent Centre,,,,-3.3168836,52.5166203
Cineworld,High Wycombe,Cineworld,,-0.7555507,51.6311538
Vue,Livingston,Vue,,-3.5188705,55.8834354
Odeon Wrexham,Wrexham,Odeon,,-2.9874298,53.0442942
The Light,Thetford,,,0.7457813,52.4133855
Plaza Cinema,,,,-2.4382337,50.7139138
ODEON Putney,London,Odeon,,-0.2139173,51.4651771
Vue,London,Vue,,-0.2188484,51.503414
Armagh Omniplex,Armagh,,Omniplex Cinema Group,-6.6539385,54.3483327
The Lighthouse Cinema,,,,-2.1231842,52.5875345
Odeon,Telford,Odeon,,-2.4489078,52.6791803
Odeon Cinemas,Kettering,Odeon,,-0.7165876,52.3731949
Haslemere Hall,Haslemere,,,-0.7110525,51.0902035
Odeon,,Odeon,,-0.238418,51.7627934
Bathgate Cinema,,,,-3.642012,55.901965
Lexi Cinema,London,,,-0.2224753,51.5375275
High Wycombe Omniplex,,,,-0.7719429,51.6131354
Everyman York,York,Everyman Cinemas,,-1.0929975,53.954818
Odeon,Bristol,Odeon,,-2.5915285,51.4566839
The Island Cinema,Lytham St Annes,,,-3.0315829,53.7466242
The Plaza,,,WTW Cinemas,-5.0523149,50.261851
Odeon,,Odeon,,-2.7170955,52.0585766
Odeon Northwich,Northwich,Odeon,,-2.5145996,53.2624035
Odeon,Colchester,Odeon,,0.8956783,51.8886278
Odeon,Loughborough,Odeon,,-1.2067538,52.7702714
Castle Cinema,London,,,-0.0431931,51.5513301
Excelsior Cinema,,,,-5.7457477,54.529096
,,,,-0.1295168,51.5114172
Everyman Chelsea,London,Everyman Cinemas,,-0.1731524,51.4855904
Odeon,Renfrew,Odeon,,-4.3713992,55.8793813
Libanus 1877,,,,-4.0504986,52.4877708
Vue,Bolton,Vue,,-2.5331083,53.5819708
Showcase Cinemas,,Showcase Cinemas,,-4.4752907,55.845365
Vue,,Vue,,-3.9399466,51.6186684
Omniplex Larne,Larne,,Omniplex Cinema Group,-5.8103825,54.847082
Odeon,Exeter,Odeon,,-3.5222365,50.7286122
Vue Altrincham,Altrincham,Vue,,-2.3488338,53.3847657
Odeon,Bradford,Odeon,,-1.7024877,53.7999207
,Stafford,,,-2.1156166,52.8036638
Theatr Mwldan,Cardigan / Aberteifi,,,-4.6605045,52.0858636
Wells Film Centre,Wells,,,-2.6508619,51.2066293
Uxbridge Odeon,,Odeon,,-0.4755082,51.5453132
Vue,Cwmbran,Vue,,-3.0192251,51.6546153
LEGO Studios 4D,,,,-0.6532856,51.464879
Vue Gunwharf Quays,Portsmouth,Vue,,-1.1067422,50.7958883
Omniplex Cinema,,,,-7.3218188,54.9999923
Cineworld,Ely,Cineworld,,0.2511889,52.4105152
Everyman,,Everyman Cinemas,,-0.7773383,51.5720142
The Tower Digital Arts Centre (formerly St Columba Church),,,,-4.7331751,56.0052418
Moviehouse,Coleraine,,,-6.677883,55.1199082
The Barn Cinema,,,,-3.6933774,50.4521512
The Light,,,,-1.990183,52.5860742
Movie House,Maghera,,,-6.6732007,54.8440567
Regal Cinema,,,,-5.2297436,50.2332121
Kavanagh Cinema,Herne Bay,,,1.1273914,51.3703068
Vue,Lancaster,Vue,,-2.800689,54.0492655
Odeon,,Odeon,,-2.1141249,52.4796428
Vue,Edinburgh,Vue,,-3.1777421,55.9806635
Cineworld,Broughton,Cineworld,,-2.974786,53.1671623
"Merlin Cinema, Bar & Kitchen",,,,-3.5362818,58.5863002
Cineworld,Aberdeen,Cineworld,Cineworld,-2.0963164,57.1439174
Olympic Studios,London,,,-0.2406397,51.4752698
Rooftop Film Club,London,,,-0.0675484,51.4699124
Lynton Cinema,,,,-3.8369417,51.2303762
Apollo Cinema,,,,-3.8123779,51.592655
Cineworld,Leeds,Cineworld,,-1.5755954,53.758787
Omniplex Cinema Dungannon,Dungannon,Omniplex,Omniplex Cinemas,-6.7616059,54.5123605
Cineworld,,Cineworld,,1.3165219,51.1258997
Wetherby Film Theatre,Wetherby,,,-1.3902801,53.929948
,,,,-3.7783407,50.2857243
The Ashford Cinema,,,,0.8690435,51.1467739
Savoy Cinema,Penzance,,,-5.5387222,50.1197257
Phoenix,Leicester,,,-1.1244775,52.6358425
The Arzner,London,,,-0.0807865,51.4976739
Vue,Stroud,Vue,,-2.2184853,51.7466611
Vue,Southport,Vue,,-3.0152124,53.6521385
The Cinema,,,,-4.48227,54.9584062
Showcase Cinemas,,Showcase Cinemas,,-2.0709563,52.5169095
Savoy Cinema,Grantham,,,-0.638884,52.9101874
The Regal Cinema,,,,-0.8715475,53.5644633
"Pentland's Picture House, Gilford",,,,-5.7990086,54.6480088
Omniplex,Carrickfergus,,Omniplex Cinema Group,-5.8127632,54.7124439
Whirled Cinema,London,,,-0.1013366,51.4650547
Cineworld,,Cineworld,,-0.4005847,51.5589033
Studio Cinema Dunoon,,,,-4.9265348,55.9510499
Vue,Northampton,Vue,,-0.90232,52.2373781
Brecon Coliseum,,,,-3.3920267,51.9474265
Odeon,Lincoln,Odeon,,-0.5436253,53.2289501
Cineworld,,Cineworld,,-2.1764752,53.029224
Kings Cinema,,Merlin Cinemas,,-3.7780933,50.2856128
Vue Cinema,Nottingham,Vue,,-1.1501814,52.9558339
Cineworld,,Cineworld,,-4.1366188,50.3708506
The Electric Palace,,,,0.5919118,50.8576833
La Charrelle,,,,-4.1037115,51.5832825
Vue,,Vue,,-4.1326858,55.8732817
The Phoenix,Falmouth,Merlin Cinemas,,-5.0743366,50.1540495
Odeon,,Odeon,,-2.1643767,53.6029854
Hollywood Plaza,Scarborough,,,-0.4054493,54.2901382
Vue,Salford,Vue,,-2.2927809,53.4704545
Vue,,Vue,,-0.22218,51.5077206
CineBowl,,,,-1.8574999,52.8997334
Arc Cinema,Nottingham,,,-1.2146107,52.9258619
Cromarty Cinema,Cromarty,,Cromarty and Resolis Film Society,-4.036379,57.68367
Woolton Cinema,Liverpool,,,-2.867732,53.3755405
Rebel Cinema,Bude,,,-4.5415813,50.762917
Zeffirellis,Ambleside,,,-2.9640252,54.4319299
Baker Street Cinema,,,,-3.0207488,51.8234484
The Palace,,,,-2.4980644,51.8234381
The Regent,Redcar,,,-1.0702519,54.6205843
Omniplex,,,Omniplex Cinema Group,-7.301007,54.5966482
Dundee Contemporary Arts,Dundee,,Charity no. SC26631,-2.9749015,56.4573095
Tain Picture House,Tain,,,-4.0557182,57.8121408
Totnes Cinema,,,,-3.6887057,50.4319231
Orion Cinema,Burgess Hill,,,-0.1301234,50.9563334
Odeon,Huddersfield,Odeon,,-1.7660886,53.655331
Flight of the Sky Lion,,,,-0.6474887,51.4632489
Odeon Kingston,Kingston upon Thames,Odeon,,-0.2992998,51.4119331
Regal,Wadebridge,,,-4.8361756,50.5152411
The Forum,Hexham,,,-2.1007686,54.9720591
Odeon,London,Odeon,,-0.1437574,51.5389741
Cineworld Hemel Hempstead,Hemel Hempstead,Cineworld,,-0.4544933,51.7480077
The Empire Cinema,Consett,,,-1.8316671,54.8516626
Market Hall Cinema,Brynmawr,,,-3.174158,51.7982117
IMC,,Irish Multiplex Cinemas,,-5.7099742,54.5908359
Arc Cinema,Great Yarmouth,,Arc Cinemas,1.7370683,52.6093383
Newry Omniplex,Newry,,Omniplex Cinema Group,-6.33953,54.1684362
Cineworld,Warrington,Cineworld,,-2.5909619,53.3885554
Warwick Arts Centre Cinema,,,,-1.5618245,52.3796421
Saffron Screen,,,,0.2307431,52.0169281
Library & Sidcup Storyteller Cinema,Sidcup,,,0.101121,51.4260784
The Regal Cinema,Fordingbridge,,,-1.7941036,50.9266796
Vue,Basingstoke,Vue,,-1.0840649,51.2653107
The Light,Sheffield,,,-1.4733386,53.3772763
Helston Cinema,,,,-5.2731082,50.1012882
Theatr Botanica,,,,-4.1486149,51.8434478
Plaza,,,,-3.0234261,53.4771499
Iveagh Movie Studios,,,,-6.2712324,54.3503473
Embassy Cinema,,Merlin Cinemas,Merlin Cinemas,-4.1219109,51.2084052
Watermans Arts Centre,,,,-0.2979129,51.4858042
Odeon,Liverpool,Odeon,,-2.986976,53.4045271
Cineworld,,Cineworld,,-1.4776787,53.5526049
Scott Cinemas Bridgwater,Bridgwater,Scott Cinemas,,-3.0069695,51.1297896
Odeon,Maidstone,Odeon,,0.5180704,51.2693532
Curzon Cinema Riverside,Canterbury,Curzon,Curzon,1.0869165,51.2849961
Odeon,,Odeon,,-3.9395133,51.6216581
The Light,Bradford,,,-1.7508914,53.7937668
"Everyman Cinema, Reigate",Reigate,Everyman Cinemas,,-0.20428,51.2368392
The Regent Cinema,Ballywatticock,,,-5.6536714,54.5774394
Vue,Romford,Vue,,0.1790185,51.5747423
Savoy,Doncaster,,,-1.1319318,53.5197504
Scott Cinemas Barnstaple,,Scott Cinemas,Scott Cinemas,-4.058664,51.0794224
Cross Hands Public Hall & Cinema,Cross Hands,,,-4.0902423,51.7976013
Festival Drayton Centre,,,,-2.4859999,52.9037513
Westway Cinema,Frome,,,-2.3220793,51.2315758
,,,,-1.1622912,52.2588446
The Phoenix,Ton Pentre,,,-3.4884214,51.6474939
Cinema & Co,,,,-3.9424276,51.6210586
Odeon,,Odeon,,-4.1577312,51.6827136
Everyman,Northallerton,Everyman Cinemas,,-1.4312549,54.3391485
Everyman,Lincoln,Everyman Cinemas,,-0.5391849,53.2271408
McRobert,,,,-3.919436,56.14566
REEL Cinema Blackburn,Blackburn,REEL Cinemas,Reel Cinemas,-2.4868808,53.748322
Movie Starr,Canvey Island,,,0.5970879,51.5126802
Grand Cinema,,,,-1.6588817,54.8887417
The Light Cinema Sittingbourne,Sittingbourne,The Light,,0.7342153,51.3414104
The Nickel Cinema,London,,,-0.1117273,51.5217117
Cineworld,London,Cineworld,,0.0043479,51.5030327
Forum Cinema,Bridlington,,,-0.1867913,54.0833411
Reading Film Theatre,,,,-0.9445099,51.4413054
Junction (Theatre/Cinema),,,,-0.8718566,53.7044684
Institute Of Light,,,,-0.0584724,51.5397081
The Living Room Cinema,Liphook,,,-0.8022497,51.076762
Selsey Pavilion,Selsey,,,-0.7916999,50.7327489
Odeon Luxe,,Odeon,,-2.1150895,52.8046074
Reel Time Movie Theater,Mildenhall,,,0.4706179,52.3728206
Flix,Loughborough,,,-1.2211401,52.7676357
Empire,,,,0.631407,51.945747
Odeon,Swadlincote,Odeon,,-1.5563988,52.7718525
Market Pavilion,Blyth,,,-1.5103563,55.1270476
RAF Lakenheath Pineview Theater,RAF Lakenheath,,,0.5455368,52.3922319
East Coast Cinema,Lowestoft,,,1.7476022,52.4712751
Odeon,West Bromwich,Odeon,,-1.9922682,52.5197527
RAF Valley Jetflicks cinema,,,,-4.5227975,53.2622303
Sherborne Cinema,,,,-2.2378498,51.8698384
Movie Starr,,,,0.5971817,51.5128632
Ritz Digital Cinema,,,,-0.3704693,50.8136848
Vue,Basildon,Vue,,0.4605558,51.5706596
,Hastings,,,0.5920217,50.8576082
Omniplex,Downpatrick,,Omniplex Cinema Group,-5.7139896,54.32355
Reel,Fareham,,,-1.1784328,50.8519189
Fellinis Cinema,Ambleside,,,-2.9636089,54.4304062
Zefferelli's By The Park,Ambleside,,,-2.9655931,54.4308219
Vue Westfield Stratford City,London,Vue,Vue,-0.0065433,51.5436072
Kino-Teatr,St Leonards-on-sea,,,0.5596519,50.8522785
Vue,Carmarthen,Vue,,-4.3093461,51.8594348
,,,,-4.4170237,52.8891672
,,,,-3.9191601,50.3896982
The Light Stockport,Stockport,,,-2.1613151,53.4122716
Piccadilly Cinema,Leicester,,,-1.1058104,52.6399492
Odeon,,Odeon,,-4.1754852,55.7599656
Savoy Gainsborough,Gainsborough,Savoy,,-0.7753732,53.3989735
Vue Poole,Poole,Vue,,-1.9522934,50.7459389
Vue,Manchester,Vue,,-2.2403691,53.4852634
Ilkley Cinema,Ilkley,,,-1.8200029,53.9266008
Vue,,Vue,,-1.9447625,52.3057103
"Plaza Cinema, Workington",Workington,,,-3.5535425,54.6570868
Peacehaven Cinema,,,,0.001406,50.7957738
Curzon Goldsmiths,,Curzon,,-0.0361232,51.4741947
Cineworld,Solihull,Cineworld,,-1.7791962,52.4118222
Vue Finchley Road,,Vue,,-0.1815748,51.5481248
,,,,-3.7576021,51.7785422
Regent Street Cinema,London,,,-0.1428506,51.5168155
Imperial Cinema,,,,-0.1780006,51.500423
The Ritz,Belper,,,-1.4798412,53.0232354
Vue Carlisle,Carlisle,Vue,,-2.930596,54.8905844
City Screen Picturehouse,York,Picturehouse Cinemas,Picture House Cinemas,-1.0848893,53.9591303
Vue,Leeds,Vue,,-1.5455218,53.8000887
the Light,,,,-3.0455153,53.4404287
The Station Cinema,Richmond,,,-1.729784,54.4031045
Omniplex,Antrim,,Omniplex Cinema Group,-6.229789,54.7319277
Cineworld,London,Cineworld,,-0.0224965,51.5078481
Omniplex,Clydebank,Omniplex Cinemas,,-4.4015207,55.9043494
Odeon,Hastings,Odeon,,0.5811206,50.8562079
The Dukes,Lancaster,,,-2.796866,54.0491049
Richard Booth's Bookshop Cinema,,,,-3.1249219,52.0749952
Odeon,,Odeon,,-2.3650814,51.3806015
The Rex,Berkhamsted,,,-0.5604095,51.7586331
Cineworld,,Cineworld,,-2.7405123,53.4512698
Odeon,Coventry,Odeon,,-1.5181824,52.4077852
BEAM,,,,-0.0797257,51.7962462
Barbican Cinemas 2 & 3,London,,Barbican,-0.0928567,51.5210215
Vue,Watford,Vue,,-0.3950316,51.6924943
Vue Merthyr Tydfil,,Vue,,-3.377241,51.7381115
Lonsdale City Cinemas,,,,-3.2624167,54.9885063
Century Cinema,Clacton-on-Sea,,,1.1484626,51.7920302
Vue,Bicester,Vue,,-1.1533469,51.898654
Cineworld,Rugby,Cineworld,,-1.256808,52.3855162
Tower Cinema,Skegness,,,0.3428669,53.1423002
Midlands Arts Centre,,,mac,-1.9039667,52.452701
Regent Cinema,,Scott Cinemas,Scott Cinemas,-2.9365692,50.7249701
Odeon Manchester Trafford Centre,Manchester,Odeon,,-2.3480039,53.4659352
Showcase Bluewater,,Showcase Cinemas,Showcase Cinemas,0.2700074,51.4368546
Picturehouse at FACT,Liverpool,Picturehouse Cinemas,,-2.9776515,53.4022357
Electric Picture Palace,,,Independent,1.6754046,52.3277045
Odeon,,Odeon,,-2.2059185,51.317647
Vue,Gateshead,Vue,,-1.6014166,54.9627547
Fleapit Cinema Club (at Westerham Hall),,,,0.073676,51.2687173
Vue,Camberley,Vue,,-0.7490581,51.337076
Cineworld,,Cineworld,,0.0914078,51.7691567
Arts Centre Cinema,,,,-4.0625042,52.4158791
Kino Cinema,Glenrothes,,,-3.1728825,56.1954047
Cineworld Wembley,London,Cineworld,Cineworld plc,-0.2839283,51.5563016
Curzon Victoria,London,Curzon,,-0.1365788,51.4975349
No.6 Cinema,,,,-1.1064393,50.8000036
Royston Picture Palace,Royston,,,-0.020194,52.0484694
Tudor Cinema,,,,-5.7371175,54.5298825
Vue Blackburn,Blackburn,Vue,,-2.4790757,53.7450203
Regal,,,,-2.5942709,52.3124217
Light Cinema,,,,0.1436992,52.6518209
Everyman Cinema,Bath,,,-2.3584359,51.3780675
Scott Cinema,East Grinstead,,,-0.0088787,51.1264754
Premier Leisure Cinema,,,Premier Leisure,-4.79384,55.6310928
Lumiere Cinema Romford,Romford,,Romford Film Trust,0.1852042,51.5794872
Vue,,Vue,,-0.1343413,51.508942
Forest Cinemas,London,,,-0.020193,51.5849488
Mockingbird Cinema & Kitchen,Birmingham,,,-1.8841791,52.4754152
Odeon,,Odeon,,-3.1054815,55.9352281
Vue,Scunthorpe,Vue,Vue,-0.6445919,53.590851
Chalmers Filmhouse,Arbroath,,,-2.5973758,56.5519898
Vue Farnborough,,Vue,,-0.7543081,51.2920113
Cineworld,Glasgow,Cineworld,,-4.3429927,55.8230983
HOME Cinema,,,,-2.2462406,53.4736834
Powell Theatre,,,,-0.5345039,51.5481104
Pressburger Theatre,,,,-0.534489,51.5480001
Theatre 3 / Icon Theatre,,,,-0.5343279,51.5480047
Electric Cinema,London,,,-0.0739235,51.5244086
Odeon,,Odeon,,-0.7542612,51.4157235
Cineworld,,Cineworld,,-1.3735148,52.5389851
Cinemac,Macclesfield,,,-2.1276011,53.258041
Picturehouse Central,London,Picturehouse Cinemas,,-0.1337164,51.5107107
Cinema at Campus West Welwyn Garden City,,,,-0.2088311,51.8055957
Showcase Cinema de Lux,Derby,Showcase Cinemas,,-1.4732423,52.9196264
Deptford Cinema,London,,,-0.0245073,51.4745186
Odeon,Bletchley,Odeon,,-0.7342358,52.0109156
Parkway Cinema,Beverley,,,-0.4215754,53.8403499
Close-Up Film Centre,London,,Close-Up Film Centre Limited,-0.0719999,51.5236118
Lume Cinema,,,,-2.2487266,52.3819202
Vue,Bury,Vue,,-2.2916168,53.594238
The Film Place,,,,-0.9914044,51.9956251
Everyman Cinema,Harrogate,Everyman Cinemas,,-1.5380273,53.9916365
Curzon Richmond,Richmond,Curzon,,-0.3070003,51.4592448
Student Cinema,,,,-1.5634216,52.3817943
Newlyn Filmhouse,Penzance,,,-5.5519016,50.107121
Gaiety Cinema,Whitehaven,,,-3.5878202,54.5500891
Curzon Wimbledon,London,Curzon,,-0.2052534,51.4203554
Regent Cinema,Blackpool,,,-3.0460586,53.8179665
Cineworld,,Cineworld,,-1.3770822,54.8140472
Curzon Aldgate,London,Curzon,,-0.0689221,51.5138199
Vue,Accrington,Vue,,-2.3692413,53.754744
Everyman Cinema,Birmingham,Everyman Cinemas,,-1.9056457,52.4755488
Vue Birmingham,Birmingham,Vue,Vue,-1.8566705,52.5055789
Odeon,,Odeon,,-1.8794356,50.7187559
,,,,0.3518059,53.1798691
Malvern Theatres,,,,-2.3271806,52.1102334
Everyman On The Corner,London,,,-0.1269986,51.5377019
King Street Cinema,Ipswich,,,1.1523613,52.0573495
ODEON Oldham,Oldham,Odeon,,-2.1113248,53.5417274
Jam Jar Cinema,Whitley Bay,,,-1.4464478,55.0427145
@BillericayCine,Billericay,,,0.415926,51.6228266
Headcorn Cinema,,,,0.6194932,51.1668274
Wookey Hole 4D Cinema,,,,-2.6715213,51.227794
Vue Cinema,London,Vue,,-0.1732082,51.6038551
Curzon,Canterbury,Curzon,,1.077324,51.2816203
Cineworld,Gloucester,Cineworld,,-2.2530361,51.8606499
Vue Hull,Hull,Vue,,-0.33946,53.742102
Commodore Cinema,Ryde,,,-1.1624632,50.7276676
Cineworld,Telford,Cineworld,,-2.4484983,52.6736995
Curzon Oxford,Oxford,Curzon,Curzon,-1.2618351,51.7495703
Everyman,London,Everyman Cinemas,,-0.0846045,51.5196469
Cubby Broccoli Cinema,Bradford,,,-1.7557084,53.7905358
Showcase Cinema de Lux,Southampton,Showcase Cinemas,National Entertainments (UK),-1.40717,50.9019638
Everyman Cinema,Leeds,Everyman Cinemas,,-1.5440217,53.7967648
Everyman King's Cross,London,Everyman Cinemas,,-0.1240562,51.5375291
Empire,Ipswich,,,1.1535689,52.0567001
4D cinema,,,,-1.5522538,50.9490276
Reel Cinema,Wakefield,,,-1.4960074,53.6816652
The Light,Bolton,,,-2.4298031,53.5810559
Malton Palace CInema,Malton,,,-0.7983845,54.134848
Cineworld,Weston-Super-Mare,Cineworld,,-2.9784639,51.3456476
The Light,Addlestone,,,-0.4897469,51.3707171
Odeon,Leeds,Odeon,,-1.4257544,53.8002589
Vue Cinemas - Bedford,Bedford,Vue,,-0.4701612,52.13478
Easton Community Cinema,,,,-2.5652741,51.4623314
,,,,-0.7672486,60.4228845
,,,New Quay Memorial Hall,-4.3613667,52.2122715
Cineworld,,Cineworld,,-0.7507235,51.4171477
Everyman,London,Everyman Cinemas,,-0.0791334,51.4190933
,,,,-4.4446182,57.3240005
Omniplex,Banbridge,,Omniplex Cinema Group,-6.2781922,54.3323144
Omniplex,Belfast,,Omniplex Cinema Group,-5.9787334,54.5812093
Everyman,London,Everyman Cinemas,,-0.1565601,51.5205013
The Cinema in the Arches,London,,,-0.1469763,51.4825125
Everyman,Chelmsford,Everyman Cinemas,,0.4758475,51.7339654
The Courtyard Cinema,,,,-2.7186615,52.0611921
Odeon,Bristol,Odeon,,-2.5860582,51.4589416
Dukes at the Komedia Picturehouse,Brighton,Picturehouse Cinemas,,-0.1393821,50.824968
West Norwood Picturehouse,,Picturehouse Cinemas,,-0.1029573,51.4330712
Odeon,Orpington,Odeon,,0.1013825,51.3765645
Odeon,,Odeon,,-2.4387436,50.710053
Everyman Altrincham,Altrincham,Everyman Cinemas,,-2.3514279,53.386548
Everyman,Horsham,Everyman Cinemas,,-0.3264937,51.0624566
The Abbey,,,,-1.2802178,51.6700979
Scotsman Picturehouse,,,,-3.1886289,55.9510636
Everyman,Newcastle upon Tyne,Everyman Cinemas,,-1.6127359,54.9726055
Everyman Manchester St. John's,Manchester,Everyman Cinemas,,-2.2529037,53.4783719
Cineworld,Newport,Cineworld,,-1.2893721,50.6991432
REEL Cinemas,Chorley,REEL Cinemas,,-2.628561,53.6539814
Cineworld,York,Cineworld,,-1.0521496,53.9832809
Studio Cinema,,,,-2.6175731,51.7925239
Everyman,London,Everyman Cinemas,,-0.1657783,51.5508149
Everyman,London,Everyman Cinemas,,-0.0178293,51.5061329
Odeon Luxe,Durham,Odeon,,-1.5784041,54.7776191
Everyman Cinema,Cardiff,Everyman Cinemas,,-3.1646235,51.4633796
Everyman Cinema,,Everyman Cinemas,,-2.3938571,53.8683508
The Great Hall,,,,-1.1383174,51.5693191
Everyman Cinema,,Everyman Cinemas,,-0.8367618,51.4092955
The Fellowship Cinema,London,,,-0.0199365,51.4329339
Cineworld,Liverpool,Cineworld,,-2.8805384,53.3493028
Cineworld,Rushden,Cineworld,,-0.629321,52.3006131
Ciné Lumière,London,,,-0.1771484,51.4945283
Riverside Theatre,Woodbridge,,,1.3182132,52.0907046
The Fraser Centre,,,,-2.9532248,55.9445666
The Flower Bowl,,,,-2.7464299,53.8622351
London Dock - Residents Cinema,London,,,-0.066645,51.5083106
Capitol Cinemas,Skelmersdale,,,-2.7742901,53.5501602
Vue Halifax,,Vue,,-1.8606355,53.7249049
Snowcat Cinema,Penarth,,,-3.1673158,51.4352326
Electric Cinema,,,,-0.2259926,51.5104293
Heart of Hawick Cinema,Hawick,,,-2.7881825,55.4211694
Regal Cinema,,,,-0.8858677,52.765253
Odeon Luxe & Dine,London,Odeon,,-0.1036228,51.5386355
Highland Cinema,Fort William,,,-5.1106404,56.8176499
Pictureville Cinema,Bradford,,,-1.7553171,53.7907746
IMAX,Bradford,,,-1.7562437,53.7906981
Sky Cinema,,,,-0.3280474,51.4884965
Everyman,Esher,Everyman Cinemas,Everyman,-0.3639612,51.3707417
Sanford Cinema,,,,-3.6648995,50.8100973
Reading Biscuit Factory,Reading,,,-0.9774048,51.4550957
Curzon Hoxton,London,Curzon,,-0.083797,51.5288806
Act One Cinema,London,,,-0.2684113,51.5065997
Laser Quest & VR Centre Bromley,Bromley,,,0.00135,51.4185688
Regent Centre,,,,-1.7769703,50.734142
Odeon Luxe West End,London,Odeon,,-0.1302154,51.5099104
Tivoli,,,,-2.0762551,51.8986115
Outdoor Cinema Hereford,Hereford,,,-2.7300051,52.0738383
Finsbury Park Picturehouse,London,Picturehouse Cinemas,,-0.1074654,51.565068
Cineworld,Watford,Cineworld,,-0.3965063,51.6560567
Silver Screen Cinema Dover,,,,1.3135952,51.1246961
Vue,London,Vue,,0.0568051,51.4506065
Rooftop Film Club,,,,-0.0810416,51.5223614
Rooftop Film Club,,,,-0.0011234,51.5416661
Cineworld,Newport,Cineworld,,-2.9430443,51.5739244
Everyman,Liverpool,Everyman Cinemas,,-2.98644,53.4071844
Everyman,London,Everyman Cinemas,,-0.0922029,51.5056351
Cinemarsh,,,,0.9474447,50.9875974
Everyman,Egham,Everyman Cinemas,,-0.5480215,51.4309276
Ealing Project,,,Really Local Group,-0.3044871,51.512233
Everyman,,Everyman Cinemas,,-3.1882228,55.9550854
Backyard Cinema,,,,-0.1922538,51.459185
Studio 74,,,,-3.5310645,50.7253137
ICA Cinema,,,,-0.1311127,51.5061096
Cineworld,,Cineworld,,0.073899,51.5574848
New Picture House,St Andrews,,,-2.7977093,56.3417113
Reel Cinema Rochdale,Rochdale,,,-2.1558455,53.6178417
Leigh Film Factory,Leigh,,,-2.4939691,53.4931609
Wellington Orbit,Telford,,,-2.5185734,52.701273
Royal Cinema,,Merlin Cinemas,,-5.4818971,50.2110805
LAS,Portree,,,-6.2011626,57.4020266
REEL Cinema,Hull,REEL Cinemas,,-0.3474325,53.7450491
,Abergavenny,,,-2.9445042,51.7710307
The Light,Redhill,,The Light Cinemas Limited 2023,-0.1679671,51.2394619
The Arc Cinema,,,,-1.1622924,52.2588508
Curzon Camden,London,Curzon,,-0.1434672,51.5422302
The Harbour Screen,,,,1.1875889,51.0783404
Abbeygate Cinema,Bury St Edmunds,,,0.7145794,52.2442264
Vue,Glasgow,Vue,,-4.2516395,55.8566876
Ealing Picturehouse,,Picturehouse Cinemas,,-0.3068819,51.5119899
Odeon,,Odeon,,-5.9258795,54.59844
Maxime Cinema Blackwood,Blackwood,,,-3.1948488,51.6653558
The Playhouse,,,,-6.6541559,55.2073559
The Ronson Theatre,London,,,-0.1777493,51.49721
Reel Cinema,Borehamwood,,,-0.2747628,51.6549265
The Woodville,Gravesend,,,0.3681929,51.4397541
The Chiswick Cinema,,,,-0.251007,51.4930902
Cineworld,London,Cineworld,,-0.3626798,51.4695854
,,,,-0.9561542,50.785437
REEL Cinema,Farnham,REEL Cinemas,,-0.7948056,51.2154964
The Arc Cinema,,,,-3.0524611,53.8163115
Montrose Playhouse,,,,-2.4662287,56.7165532
Everyman,Bury St Edmunds,Everyman Cinemas,,0.7092206,52.2455151
The Malt Cinema,Lymington,,,-1.5426993,50.7597347
Omniplex Cinema,Wigan,,,-2.6579663,53.5460304
Everyman,London,Everyman Cinemas,,-0.0105386,51.5424397
Chester Picturehouse,,Picturehouse Cinemas,,-2.8935258,53.1922652
Spey Valley Cinema & Auditoium,,,MacDonald Hotels,-3.832638,57.1881331
Everyman Glasgow,Glasgow,Everyman Cinemas,,-4.2534324,55.8593447
Curzon,Sheffield,Curzon,,-1.4672816,53.3822834
The ARC Cinema,,,,-1.3599775,53.4307952
ArtHouse Crouch End,London,,,-0.1200548,51.5818917
Crouch End Picturehouse,,Picturehouse Cinemas,,-0.1208243,51.5816373
York Student Cinema,York,,,-1.0544287,53.9461998
Blaenafon Workmen's Hall Cinema,Blaenavon,,,-3.0862012,51.7730222
Everyman Cinema,Walton-on-Thames,Everyman Cinemas,Everyman,-0.4167083,51.3838543
The ARC Cinema,,,,-2.6993912,53.7609122
Discovery Theatre,,VisitScotland,,-5.0557154,55.838424
The Royal Cinema,Faversham,,,0.8916081,51.3157435
Epsom Picturehouse,,Picturehouse Cinemas,,-0.2658198,51.3342725
The Light,,,,-1.7783161,53.6453452
Watershed,Bristol,,,-2.598143,51.4517753
Savoy Corby,Corby,,,-0.7042574,52.4883604
Plymouth Arts Cinema,Plymouth,,,-4.1375589,50.3730439
Everyman,Plymouth,Everyman Cinemas,,-4.1647971,50.3616421
Hawick Film and Video Club,,,,-2.7853521,55.4255816
Roxy Movies,,,,-1.2387838,54.5754187
Avenue Cinema,,,,-5.931797,54.6008932
Movie House Cinemas,,,,-5.9570387,54.6689092
Everyman,Cambridge,Everyman Cinemas,,0.1209702,52.2041592
Light Cinema Sittingbourne,Sittingbourne,,,0.7340377,51.3413232
Flix,Manchester,,,-2.2465274,53.4839433
Film House,,Art'otel,Art'otel,-0.0832021,51.5262974
Vue,Colchester,Vue,,0.9009286,51.9233333
Everyman,,,,-0.307835,51.4827893
